{
    "crossingsLimit":3,
    "fuelStationRadius":4000,
    "mapOptions":{
        "center":{
            "lat":46.051241,
            "lng":14.995463
        },
        "zoom":9
    },
    "autocompleteOptions":{
        "componentRestrictions":{
            "country":"si"
        }
    },
    "crossings":[
        {
            "name":"Korensko sedlo",
            "lat":46.51773060441385,
            "lng":13.751593083143234
        },
        {
            "name":"Karavanke",
            "lat":46.48136758200522,
            "lng":14.00758981704712
        },
        {
            "name":"Ljubelj",
            "lat":46.437481294769356,
            "lng":14.254932403564453
        },
        {
            "name":"Jezersko",
            "lat":46.419126964638565,
            "lng":14.527037143707275
        },
        {
            "name":"Holmec",
            "lat":46.56750224126688,
            "lng":14.839066565036774
        },
        {
            "name":"Vič",
            "lat":46.604669868501205,
            "lng":14.985136985778809
        },
        {
            "name":"Radelj",
            "lat":46.64506895743895,
            "lng":15.206556022167206
        },
        {
            "name":"Jurij",
            "lat":46.647870726812364,
            "lng":15.5515256524086
        },
        {
            "name":"Šentilj",
            "lat":46.6907994052945,
            "lng":15.645303726196289
        },
        {
            "name":"Trate",
            "lat":46.7070204237029,
            "lng":15.7853364944458
        },
        {
            "name":"Gornja Radgona",
            "lat":46.68378702211667,
            "lng":15.987145900726318
        },
        {
            "name":"Gederovci",
            "lat":46.67906890102226,
            "lng":16.040736436843872
        },
        {
            "name":"Kuzma",
            "lat":46.83932215058491,
            "lng":16.056778728961945
        }
    ]
}
